[
  {
    "colisId": "COLIS-001",
    "livreur": "Marc Dupont",
    "statut": "livre",
    "timestamp": "2026-03-18T10:30:00",
    "localisation": { "lat": 45.7640, "lng": 4.8357, "ville": "Lyon", "zone": "2eme" },
    "clientNom": "Sophie Martin",
    "adresseDest": "12 Rue de la République, Lyon",
    "priorite": "express"
  },
  {
    "colisId": "COLIS-002",
    "livreur": "Julie Bernard",
    "statut": "en_transit",
    "timestamp": "2026-03-19T08:15:00",
    "localisation": { "lat": 45.7480, "lng": 4.8470, "ville": "Lyon", "zone": "3eme" },
    "clientNom": "Pierre Lemoine",
    "adresseDest": "5 Avenue Gambetta, Lyon",
    "priorite": "normal"
  },
  {
    "colisId": "COLIS-003",
    "livreur": "Marc Dupont",
    "statut": "en_attente",
    "timestamp": "2026-03-20T07:00:00",
    "localisation": { "lat": 45.7500, "lng": 4.8300, "ville": "Lyon", "zone": "1er" },
    "clientNom": "Alice Renard",
    "adresseDest": "8 Place Bellecour, Lyon",
    "priorite": "express"
  },
  {
    "colisId": "COLIS-004",
    "livreur": "Thomas Moreau",
    "statut": "echec",
    "timestamp": "2026-03-19T14:45:00",
    "localisation": { "lat": 45.7700, "lng": 4.8200, "ville": "Lyon", "zone": "6eme" },
    "clientNom": "Nicolas Blanc",
    "adresseDest": "23 Cours Vitton, Lyon",
    "priorite": "normal"
  },
  {
    "colisId": "COLIS-005",
    "livreur": "Julie Bernard",
    "statut": "livre",
    "timestamp": "2026-03-18T16:20:00",
    "localisation": { "lat": 45.7550, "lng": 4.8600, "ville": "Lyon", "zone": "7eme" },
    "clientNom": "Emma Petit",
    "adresseDest": "44 Rue Pasteur, Lyon",
    "priorite": "normal"
  },
  {
    "colisId": "COLIS-006",
    "livreur": "Thomas Moreau",
    "statut": "en_transit",
    "timestamp": "2026-03-20T09:00:00",
    "localisation": { "lat": 45.7600, "lng": 4.8100, "ville": "Lyon", "zone": "5eme" },
    "clientNom": "Lucas Durand",
    "adresseDest": "3 Montée Saint-Barthélémy, Lyon",
    "priorite": "express"
  }
]
