[
  { "colisId": "COLIS-001", "livreur": "Marc Dupont",    "statut": "livre",      "timestamp": "2026-03-10T08:15:00", "localisation": { "lat": 45.764,  "lng": 4.835,  "ville": "Lyon", "zone": "2eme"  }, "clientNom": "Sophie Martin",    "adresseDest": "12 Rue de la République, Lyon",   "priorite": "express" },
  { "colisId": "COLIS-002", "livreur": "Julie Bernard",  "statut": "en_transit", "timestamp": "2026-03-10T09:30:00", "localisation": { "lat": 45.748,  "lng": 4.847,  "ville": "Lyon", "zone": "3eme"  }, "clientNom": "Pierre Lemoine",   "adresseDest": "5 Avenue Gambetta, Lyon",         "priorite": "normal"  },
  { "colisId": "COLIS-003", "livreur": "Marc Dupont",    "statut": "en_attente", "timestamp": "2026-03-10T10:00:00", "localisation": { "lat": 45.750,  "lng": 4.830,  "ville": "Lyon", "zone": "1er"   }, "clientNom": "Alice Renard",     "adresseDest": "8 Place Bellecour, Lyon",         "priorite": "express" },
  { "colisId": "COLIS-004", "livreur": "Thomas Moreau",  "statut": "echec",      "timestamp": "2026-03-10T11:45:00", "localisation": { "lat": 45.770,  "lng": 4.820,  "ville": "Lyon", "zone": "6eme"  }, "clientNom": "Nicolas Blanc",    "adresseDest": "23 Cours Vitton, Lyon",           "priorite": "normal"  },
  { "colisId": "COLIS-005", "livreur": "Julie Bernard",  "statut": "livre",      "timestamp": "2026-03-10T13:20:00", "localisation": { "lat": 45.755,  "lng": 4.860,  "ville": "Lyon", "zone": "7eme"  }, "clientNom": "Emma Petit",       "adresseDest": "44 Rue Pasteur, Lyon",            "priorite": "normal"  },
  { "colisId": "COLIS-006", "livreur": "Thomas Moreau",  "statut": "en_transit", "timestamp": "2026-03-11T08:00:00", "localisation": { "lat": 45.760,  "lng": 4.810,  "ville": "Lyon", "zone": "5eme"  }, "clientNom": "Lucas Durand",     "adresseDest": "3 Montée Saint-Barthélémy, Lyon", "priorite": "express" },
  { "colisId": "COLIS-007", "livreur": "Sara Lefebvre",  "statut": "livre",      "timestamp": "2026-03-11T09:10:00", "localisation": { "lat": 45.742,  "lng": 4.857,  "ville": "Lyon", "zone": "8eme"  }, "clientNom": "Camille Girard",   "adresseDest": "17 Avenue Jean Jaurès, Lyon",     "priorite": "normal"  },
  { "colisId": "COLIS-008", "livreur": "Marc Dupont",    "statut": "livre",      "timestamp": "2026-03-11T10:30:00", "localisation": { "lat": 45.758,  "lng": 4.842,  "ville": "Lyon", "zone": "4eme"  }, "clientNom": "Hugo Faure",       "adresseDest": "9 Rue de la Croix-Rousse, Lyon",  "priorite": "express" },
  { "colisId": "COLIS-009", "livreur": "Sara Lefebvre",  "statut": "echec",      "timestamp": "2026-03-11T11:00:00", "localisation": { "lat": 45.773,  "lng": 4.828,  "ville": "Lyon", "zone": "6eme"  }, "clientNom": "Inès Morel",       "adresseDest": "55 Rue Masséna, Lyon",            "priorite": "normal"  },
  { "colisId": "COLIS-010", "livreur": "Julie Bernard",  "statut": "livre",      "timestamp": "2026-03-11T14:00:00", "localisation": { "lat": 45.745,  "lng": 4.865,  "ville": "Lyon", "zone": "8eme"  }, "clientNom": "Antoine Simon",    "adresseDest": "32 Rue de Gerland, Lyon",         "priorite": "express" },
  { "colisId": "COLIS-011", "livreur": "Thomas Moreau",  "statut": "livre",      "timestamp": "2026-03-12T08:30:00", "localisation": { "lat": 45.763,  "lng": 4.833,  "ville": "Lyon", "zone": "2eme"  }, "clientNom": "Lucie Martin",     "adresseDest": "21 Rue de la Barre, Lyon",        "priorite": "normal"  },
  { "colisId": "COLIS-012", "livreur": "Marc Dupont",    "statut": "en_transit", "timestamp": "2026-03-12T09:15:00", "localisation": { "lat": 45.751,  "lng": 4.831,  "ville": "Lyon", "zone": "1er"   }, "clientNom": "Maxime Bernard",   "adresseDest": "6 Place des Terreaux, Lyon",      "priorite": "express" },
  { "colisId": "COLIS-013", "livreur": "Sara Lefebvre",  "statut": "livre",      "timestamp": "2026-03-12T10:45:00", "localisation": { "lat": 45.769,  "lng": 4.851,  "ville": "Lyon", "zone": "3eme"  }, "clientNom": "Chloé Dupont",     "adresseDest": "14 Cours Lafayette, Lyon",        "priorite": "normal"  },
  { "colisId": "COLIS-014", "livreur": "Julie Bernard",  "statut": "echec",      "timestamp": "2026-03-12T11:30:00", "localisation": { "lat": 45.778,  "lng": 4.815,  "ville": "Lyon", "zone": "9eme"  }, "clientNom": "Romain Leroy",     "adresseDest": "88 Rue de Bourgogne, Lyon",       "priorite": "normal"  },
  { "colisId": "COLIS-015", "livreur": "Thomas Moreau",  "statut": "livre",      "timestamp": "2026-03-12T14:20:00", "localisation": { "lat": 45.756,  "lng": 4.858,  "ville": "Lyon", "zone": "7eme"  }, "clientNom": "Pauline Blanc",    "adresseDest": "27 Avenue Berthelot, Lyon",       "priorite": "express" },
  { "colisId": "COLIS-016", "livreur": "Marc Dupont",    "statut": "livre",      "timestamp": "2026-03-13T08:00:00", "localisation": { "lat": 45.762,  "lng": 4.836,  "ville": "Lyon", "zone": "2eme"  }, "clientNom": "Julien Favre",     "adresseDest": "3 Rue Mercière, Lyon",            "priorite": "normal"  },
  { "colisId": "COLIS-017", "livreur": "Sara Lefebvre",  "statut": "en_transit", "timestamp": "2026-03-13T09:30:00", "localisation": { "lat": 45.747,  "lng": 4.868,  "ville": "Lyon", "zone": "8eme"  }, "clientNom": "Anaïs Thomas",     "adresseDest": "19 Rue Paul Bert, Lyon",          "priorite": "express" },
  { "colisId": "COLIS-018", "livreur": "Julie Bernard",  "statut": "livre",      "timestamp": "2026-03-13T10:15:00", "localisation": { "lat": 45.752,  "lng": 4.829,  "ville": "Lyon", "zone": "1er"   }, "clientNom": "Florian Petit",    "adresseDest": "11 Quai de Saône, Lyon",          "priorite": "normal"  },
  { "colisId": "COLIS-019", "livreur": "Thomas Moreau",  "statut": "echec",      "timestamp": "2026-03-13T12:00:00", "localisation": { "lat": 45.775,  "lng": 4.822,  "ville": "Lyon", "zone": "6eme"  }, "clientNom": "Marine Garnier",   "adresseDest": "46 Boulevard des Belges, Lyon",   "priorite": "normal"  },
  { "colisId": "COLIS-020", "livreur": "Marc Dupont",    "statut": "livre",      "timestamp": "2026-03-13T15:00:00", "localisation": { "lat": 45.749,  "lng": 4.862,  "ville": "Lyon", "zone": "7eme"  }, "clientNom": "Baptiste Perrin",  "adresseDest": "7 Rue Chevreul, Lyon",            "priorite": "express" },
  { "colisId": "COLIS-021", "livreur": "Sara Lefebvre",  "statut": "livre",      "timestamp": "2026-03-14T08:20:00", "localisation": { "lat": 45.766,  "lng": 4.840,  "ville": "Lyon", "zone": "2eme"  }, "clientNom": "Elisa Roux",       "adresseDest": "33 Rue Victor Hugo, Lyon",        "priorite": "normal"  },
  { "colisId": "COLIS-022", "livreur": "Julie Bernard",  "statut": "en_attente", "timestamp": "2026-03-14T09:00:00", "localisation": { "lat": 45.753,  "lng": 4.832,  "ville": "Lyon", "zone": "1er"   }, "clientNom": "Kevin Bonnet",     "adresseDest": "2 Place Bellecour, Lyon",         "priorite": "express" },
  { "colisId": "COLIS-023", "livreur": "Thomas Moreau",  "statut": "livre",      "timestamp": "2026-03-14T10:30:00", "localisation": { "lat": 45.760,  "lng": 4.848,  "ville": "Lyon", "zone": "3eme"  }, "clientNom": "Clara Moulin",     "adresseDest": "58 Rue Garibaldi, Lyon",          "priorite": "normal"  },
  { "colisId": "COLIS-024", "livreur": "Marc Dupont",    "statut": "livre",      "timestamp": "2026-03-14T11:45:00", "localisation": { "lat": 45.780,  "lng": 4.812,  "ville": "Lyon", "zone": "9eme"  }, "clientNom": "Théo Laurent",     "adresseDest": "12 Rue de l'Annonciade, Lyon",    "priorite": "normal"  },
  { "colisId": "COLIS-025", "livreur": "Sara Lefebvre",  "statut": "echec",      "timestamp": "2026-03-14T14:00:00", "localisation": { "lat": 45.743,  "lng": 4.870,  "ville": "Lyon", "zone": "8eme"  }, "clientNom": "Manon Robert",     "adresseDest": "71 Avenue des Frères Lumière, Lyon", "priorite": "express" },
  { "colisId": "COLIS-026", "livreur": "Julie Bernard",  "statut": "livre",      "timestamp": "2026-03-15T08:10:00", "localisation": { "lat": 45.758,  "lng": 4.839,  "ville": "Lyon", "zone": "4eme"  }, "clientNom": "Alexis Girard",    "adresseDest": "5 Montée de la Grande Côte, Lyon", "priorite": "normal"  },
  { "colisId": "COLIS-027", "livreur": "Thomas Moreau",  "statut": "en_transit", "timestamp": "2026-03-15T09:45:00", "localisation": { "lat": 45.765,  "lng": 4.837,  "ville": "Lyon", "zone": "2eme"  }, "clientNom": "Laura Simon",      "adresseDest": "18 Rue de la Charité, Lyon",      "priorite": "express" },
  { "colisId": "COLIS-028", "livreur": "Marc Dupont",    "statut": "livre",      "timestamp": "2026-03-15T10:30:00", "localisation": { "lat": 45.754,  "lng": 4.863,  "ville": "Lyon", "zone": "7eme"  }, "clientNom": "Nathan Moreau",    "adresseDest": "39 Rue de la Guillotière, Lyon",  "priorite": "normal"  },
  { "colisId": "COLIS-029", "livreur": "Sara Lefebvre",  "statut": "livre",      "timestamp": "2026-03-15T12:00:00", "localisation": { "lat": 45.771,  "lng": 4.826,  "ville": "Lyon", "zone": "6eme"  }, "clientNom": "Jade Dupuis",      "adresseDest": "64 Rue Vendôme, Lyon",            "priorite": "express" },
  { "colisId": "COLIS-030", "livreur": "Julie Bernard",  "statut": "echec",      "timestamp": "2026-03-15T14:30:00", "localisation": { "lat": 45.746,  "lng": 4.853,  "ville": "Lyon", "zone": "3eme"  }, "clientNom": "Mathieu Lecomte",  "adresseDest": "22 Place Guichard, Lyon",         "priorite": "normal"  },
  { "colisId": "COLIS-031", "livreur": "Marc Dupont",    "statut": "livre",      "timestamp": "2026-03-16T08:00:00", "localisation": { "lat": 45.759,  "lng": 4.844,  "ville": "Lyon", "zone": "4eme"  }, "clientNom": "Océane Barbier",   "adresseDest": "10 Rue Burdeau, Lyon",            "priorite": "express" },
  { "colisId": "COLIS-032", "livreur": "Thomas Moreau",  "statut": "livre",      "timestamp": "2026-03-16T09:20:00", "localisation": { "lat": 45.783,  "lng": 4.809,  "ville": "Lyon", "zone": "9eme"  }, "clientNom": "Dylan Fontaine",   "adresseDest": "4 Chemin des Crêts, Lyon",        "priorite": "normal"  },
  { "colisId": "COLIS-033", "livreur": "Sara Lefebvre",  "statut": "en_transit", "timestamp": "2026-03-16T10:00:00", "localisation": { "lat": 45.750,  "lng": 4.833,  "ville": "Lyon", "zone": "1er"   }, "clientNom": "Camille Leclerc",  "adresseDest": "16 Quai Tilsitt, Lyon",           "priorite": "express" },
  { "colisId": "COLIS-034", "livreur": "Julie Bernard",  "statut": "livre",      "timestamp": "2026-03-16T11:30:00", "localisation": { "lat": 45.757,  "lng": 4.861,  "ville": "Lyon", "zone": "7eme"  }, "clientNom": "Adrien Marchand",  "adresseDest": "53 Rue Sébastien Gryphe, Lyon",  "priorite": "normal"  },
  { "colisId": "COLIS-035", "livreur": "Marc Dupont",    "statut": "echec",      "timestamp": "2026-03-16T13:00:00", "localisation": { "lat": 45.774,  "lng": 4.824,  "ville": "Lyon", "zone": "6eme"  }, "clientNom": "Zoé Renaud",       "adresseDest": "31 Rue Tête d'Or, Lyon",          "priorite": "normal"  },
  { "colisId": "COLIS-036", "livreur": "Thomas Moreau",  "statut": "livre",      "timestamp": "2026-03-17T08:30:00", "localisation": { "lat": 45.744,  "lng": 4.866,  "ville": "Lyon", "zone": "8eme"  }, "clientNom": "Victor Colas",     "adresseDest": "9 Rue Professeur Beauvisage, Lyon", "priorite": "express" },
  { "colisId": "COLIS-037", "livreur": "Sara Lefebvre",  "statut": "livre",      "timestamp": "2026-03-17T09:15:00", "localisation": { "lat": 45.767,  "lng": 4.838,  "ville": "Lyon", "zone": "2eme"  }, "clientNom": "Pauline Gros",     "adresseDest": "7 Rue de la République, Lyon",   "priorite": "normal"  },
  { "colisId": "COLIS-038", "livreur": "Julie Bernard",  "statut": "en_attente", "timestamp": "2026-03-17T10:45:00", "localisation": { "lat": 45.761,  "lng": 4.849,  "ville": "Lyon", "zone": "3eme"  }, "clientNom": "Enzo Bertrand",    "adresseDest": "48 Cours Gambetta, Lyon",         "priorite": "express" },
  { "colisId": "COLIS-039", "livreur": "Marc Dupont",    "statut": "livre",      "timestamp": "2026-03-17T12:00:00", "localisation": { "lat": 45.756,  "lng": 4.831,  "ville": "Lyon", "zone": "1er"   }, "clientNom": "Léa Chevalier",    "adresseDest": "25 Rue Saint-Jean, Lyon",         "priorite": "normal"  },
  { "colisId": "COLIS-040", "livreur": "Thomas Moreau",  "statut": "echec",      "timestamp": "2026-03-17T15:00:00", "localisation": { "lat": 45.779,  "lng": 4.817,  "ville": "Lyon", "zone": "9eme"  }, "clientNom": "Simon Bourgeois",  "adresseDest": "15 Rue des Canuts, Lyon",         "priorite": "normal"  },
  { "colisId": "COLIS-041", "livreur": "Sara Lefebvre",  "statut": "livre",      "timestamp": "2026-03-18T08:15:00", "localisation": { "lat": 45.755,  "lng": 4.864,  "ville": "Lyon", "zone": "7eme"  }, "clientNom": "Audrey Perrot",    "adresseDest": "37 Avenue Jean Moulin, Lyon",     "priorite": "express" },
  { "colisId": "COLIS-042", "livreur": "Julie Bernard",  "statut": "livre",      "timestamp": "2026-03-18T09:30:00", "localisation": { "lat": 45.763,  "lng": 4.841,  "ville": "Lyon", "zone": "2eme"  }, "clientNom": "Rémi Vasseur",     "adresseDest": "20 Rue Auguste Comte, Lyon",      "priorite": "normal"  },
  { "colisId": "COLIS-043", "livreur": "Marc Dupont",    "statut": "en_transit", "timestamp": "2026-03-18T10:00:00", "localisation": { "lat": 45.772,  "lng": 4.823,  "ville": "Lyon", "zone": "6eme"  }, "clientNom": "Clémence Jacquet", "adresseDest": "60 Boulevard Pinel, Lyon",        "priorite": "express" },
  { "colisId": "COLIS-044", "livreur": "Thomas Moreau",  "statut": "livre",      "timestamp": "2026-03-18T11:45:00", "localisation": { "lat": 45.748,  "lng": 4.856,  "ville": "Lyon", "zone": "3eme"  }, "clientNom": "Tristan Boyer",    "adresseDest": "11 Rue de Créqui, Lyon",          "priorite": "normal"  },
  { "colisId": "COLIS-045", "livreur": "Sara Lefebvre",  "statut": "echec",      "timestamp": "2026-03-18T14:20:00", "localisation": { "lat": 45.784,  "lng": 4.807,  "ville": "Lyon", "zone": "9eme"  }, "clientNom": "Inès Carpentier",  "adresseDest": "8 Rue de la Pape, Lyon",          "priorite": "normal"  },
  { "colisId": "COLIS-046", "livreur": "Julie Bernard",  "statut": "livre",      "timestamp": "2026-03-19T08:00:00", "localisation": { "lat": 45.760,  "lng": 4.843,  "ville": "Lyon", "zone": "4eme"  }, "clientNom": "Mathis Perrin",    "adresseDest": "29 Rue de l'Alma, Lyon",          "priorite": "express" },
  { "colisId": "COLIS-047", "livreur": "Marc Dupont",    "statut": "livre",      "timestamp": "2026-03-19T09:30:00", "localisation": { "lat": 45.753,  "lng": 4.860,  "ville": "Lyon", "zone": "7eme"  }, "clientNom": "Céline Masson",    "adresseDest": "43 Rue Félix Faure, Lyon",        "priorite": "normal"  },
  { "colisId": "COLIS-048", "livreur": "Thomas Moreau",  "statut": "en_attente", "timestamp": "2026-03-19T10:15:00", "localisation": { "lat": 45.769,  "lng": 4.836,  "ville": "Lyon", "zone": "2eme"  }, "clientNom": "Guillaume Arnaud", "adresseDest": "6 Rue Edouard Herriot, Lyon",     "priorite": "express" },
  { "colisId": "COLIS-049", "livreur": "Sara Lefebvre",  "statut": "livre",      "timestamp": "2026-03-19T12:30:00", "localisation": { "lat": 45.746,  "lng": 4.854,  "ville": "Lyon", "zone": "3eme"  }, "clientNom": "Amandine Colin",   "adresseDest": "35 Rue de Bonnel, Lyon",          "priorite": "normal"  },
  { "colisId": "COLIS-050", "livreur": "Julie Bernard",  "statut": "en_transit", "timestamp": "2026-03-20T08:45:00", "localisation": { "lat": 45.776,  "lng": 4.820,  "ville": "Lyon", "zone": "6eme"  }, "clientNom": "Sébastien Leroux", "adresseDest": "52 Rue Waldeck Rousseau, Lyon",   "priorite": "express" }
]
